$GNGGA,150019.00,3201.18252,N,11849.58186,E,1,03,5.53,-3.0,M,2.5,M,,*5C
$GNGSA,A,2,10,32,,,,,,,,,,,5.62,5.53,1.00*1E 
$GNGSA,A,2,71,,,,,,,,,,,,5.62,5.53,1.00*18
$GPGSV,2,1,08,10,57,319,46,14,16,282,,15,25,078,16,18,87,263,23*79
$GPGSV,2,2,08,20,19,140,,21,26,210,18,32,29,294,37,41,36,234,29*7C
$GLGSV,3,1,09,69,22,111,,70,61,046,,71,33,331,37,73,63,184,18*64
$GLGSV,3,2,09,74,08,202,,79,00,026,,80,57,041,20,86,07,278,*65
$GLGSV,3,3,09,87,01,329,*5A
$GNGLL,3201.18252,N,11849.58186,E,150019.00,A,A*70
$GNRMC,150020.00,A,3201.18260,N,11849.58183,E,0.221,,170817,,,A*6E
$GNVTG,,T,,M,0.221,N,0.410,K,A*39
$GNGGA,150020.00,3201.18260,N,11849.58183,E,1,03,5.53,-3.0,M,2.5,M,,*52
$GNGSA,A,2,10,32,,,,,,,,,,,5.62,5.53,1.00*1E
$GNGSA,A,2,71,,,,,,,,,,,,5.62,5.53,1.00*18
$GPGSV,2,1,08,10,57,319,46,14,16,282,,15,25,078,15,18,87,263,23*7A
$GPGSV,2,2,08,20,19,140,,21,26,210,18,32,29,294,37,41,36,234,29*7C
$GLGSV,3,1,09,69,22,111,,70,61,046,,71,33,331,37,73,63,184,17*6B
$GLGSV,3,2,09,74,08,202,,79,00,026,,80,57,041,20,86,07,278,*65
$GLGSV,3,3,09,87,01,329,*5A
$GNGLL,3201.18260,N,11849.58183,E,150020.00,A,A*7E
$GNRMC,150021.00,A,3201.18269,N,11849.58180,E,0.062,,170817,,,A*60
$GNVTG,,T,,M,0.062,N,0.115,K,A*3C
$GNGGA,150021.00,3201.18269,N,11849.58180,E,1,03,5.53,-3.3,M,2.5,M,,*5A
$GNGSA,A,2,10,32,,,,,,,,,,,5.62,5.53,1.00*1E
$GNGSA,A,2,71,,,,,,,,,,,,5.62,5.53,1.00*18
$GPGSV,2,1,08,10,57,319,47,14,16,282,17,15,25,078,16,18,87,263,23*7E
$GPGSV,2,2,08,20,19,140,,21,26,210,18,32,29,294,37,41,36,234,29*7C
$GLGSV,3,1,09,69,22,111,,70,61,046,,71,33,331,37,73,63,184,16*6A
$GLGSV,3,2,09,74,08,202,,79,00,026,,80,57,041,20,86,07,278,*65
$GLGSV,3,3,09,87,01,329,*5A
$GNGLL,3201.18269,N,11849.58180,E,150021.00,A,A*75
$GNRMC,150022.00,A,3201.18275,N,11849.58176,E,0.215,,170817,,,A*65
$GNVTG,,T,,M,0.215,N,0.399,K,A*38
$GNGGA,150022.00,3201.18275,N,11849.58176,E,1,03,5.53,-3.2,M,2.5,M,,*5C
$GNGSA,A,2,10,32,,,,,,,,,,,5.62,5.53,1.00*1E
$GNGSA,A,2,71,,,,,,,,,,,,5.62,5.53,1.00*18
$GPGSV,2,1,08,10,57,319,47,14,16,282,17,15,25,078,17,18,87,263,23*7F
$GPGSV,2,2,08,20,19,140,,21,26,210,19,32,29,294,37,41,36,234,29*7D
$GLGSV,3,1,09,69,22,111,,70,61,046,,71,33,331,37,73,63,184,15*69
$GLGSV,3,2,09,74,08,202,,79,00,026,,80,57,041,20,86,07,278,*65
$GLGSV,3,3,09,87,01,329,*5A
$GNGLL,3201.18275,N,11849.58176,E,150022.00,A,A*72
$GNRMC,150023.00,A,3201.18282,N,11849.58172,E,0.263,,170817,,,A*69
$GNVTG,,T,,M,0.263,N,0.488,K,A*3E
$GNGGA,150023.00,3201.18282,N,11849.58172,E,1,03,5.53,-3.4,M,2.5,M,,*57
$GNGSA,A,2,10,32,,,,,,,,,,,5.62,5.53,1.00*1E
$GNGSA,A,2,71,,,,,,,,,,,,5.62,5.53,1.00*18
$GPGSV,2,1,08,10,57,319,47,14,16,282,16,15,25,078,18,18,87,263,22*70
$GPGSV,2,2,08,20,19,140,,21,26,210,20,32,29,294,37,41,36,234,29*77
$GLGSV,3,1,09,69,22,111,,70,61,046,,71,33,331,37,73,63,184,14*68
$GLGSV,3,2,09,74,08,202,,79,00,026,,80,57,041,20,86,07,278,*65
$GLGSV,3,3,09,87,01,329,*5A
$GNGLL,3201.18282,N,11849.58172,E,150023.00,A,A*7F
$GNRMC,150024.00,A,3201.18290,N,11849.58170,E,0.192,,170817,,,A*62
$GNVTG,,T,,M,0.192,N,0.356,K,A*37
$GNGGA,150024.00,3201.18290,N,11849.58170,E,1,03,5.53,-3.4,M,2.5,M,,*51
$GNGSA,A,2,10,32,,,,,,,,,,,5.62,5.53,1.00*1E
$GNGSA,A,2,71,,,,,,,,,,,,5.62,5.53,1.00*18
$GPGSV,2,1,08,10,57,319,47,14,16,282,16,15,25,078,18,18,87,263,22*70
$GPGSV,2,2,08,20,19,140,,21,26,210,20,32,29,294,37,41,36,234,28*76
$GLGSV,3,1,09,69,22,111,,70,61,046,,71,33,331,37,73,63,184,15*69
$GLGSV,3,2,09,74,08,202,,79,00,026,,80,57,041,19,86,07,278,*6F
$GLGSV,3,3,09,87,01,329,*5A
$GNGLL,3201.18290,N,11849.58170,E,150024.00,A,A*79
$GNRMC,150025.00,A,3201.18297,N,11849.58168,E,0.198,,170817,,,A*67
$GNVTG,,T,,M,0.198,N,0.367,K,A*3F
$GNGGA,150025.00,3201.18297,N,11849.58168,E,1,03,5.53,-3.2,M,2.5,M,,*58
$GNGSA,A,2,10,32,,,,,,,,,,,5.62,5.53,1.00*1E
$GNGSA,A,2,71,,,,,,,,,,,,5.62,5.53,1.00*18
$GPGSV,2,1,08,10,57,319,47,14,16,282,17,15,25,078,17,18,87,263,22*7E
$GPGSV,2,2,08,20,19,140,,21,26,210,21,32,29,294,37,41,36,234,28*77
$GLGSV,3,1,09,69,22,111,,70,61,046,,71,33,331,37,73,63,184,16*6A
$GLGSV,3,2,09,74,08,202,,79,00,026,,80,57,041,19,86,07,278,*6F
$GLGSV,3,3,09,87,01,329,*5A
$GNGLL,3201.18297,N,11849.58168,E,150025.00,A,A*76
$GNRMC,150026.00,A,3201.18299,N,11849.58168,E,0.691,,170817,,,A*64
$GNVTG,,T,,M,0.691,N,1.280,K,A*38
$GNGGA,150026.00,3201.18299,N,11849.58168,E,1,03,5.53,-3.1,M,2.5,M,,*56
$GNGSA,A,2,10,32,,,,,,,,,,,5.62,5.53,1.00*1E
$GNGSA,A,2,71,,,,,,,,,,,,5.62,5.53,1.00*18
$GPGSV,2,1,08,10,57,319,47,14,16,282,17,15,25,078,17,18,87,263,22*7E
$GPGSV,2,2,08,20,19,140,,21,26,210,21,32,29,294,37,41,36,234,28*77
$GLGSV,3,1,09,69,22,111,,70,61,046,,71,33,331,37,73,63,184,16*6A
$GLGSV,3,2,09,74,08,202,,79,00,026,,80,57,041,20,86,07,278,*65
$GLGSV,3,3,09,87,01,329,*5A
$GNGLL,3201.18299,N,11849.58168,E,150026.00,A,A*7B
$GNRMC,150027.00,A,3201.18306,N,11849.58161,E,0.744,,170817,,,A*62
$GNVTG,,T,,M,0.744,N,1.377,K,A*38
$GNGGA,150027.00,3201.18306,N,11849.58161,E,1,03,5.53,-3.1,M,2.5,M,,*59
$GNGSA,A,2,10,32,,,,,,,,,,,5.62,5.53,1.00*1E
$GNGSA,A,2,71,,,,,,,,,,,,5.62,5.53,1.00*18
$GPGSV,2,1,08,10,57,319,47,14,16,282,15,15,25,078,18,18,87,263,22*73
$GPGSV,2,2,08,20,19,140,,21,26,210,21,32,29,294,37,41,36,234,27*78
$GLGSV,3,1,09,69,22,111,,70,61,046,,71,33,331,37,73,63,184,15*69
$GLGSV,3,2,09,74,08,202,,79,00,026,,80,57,041,20,86,07,278,*65
$GLGSV,3,3,09,87,01,329,*5A
$GNGLL,3201.18306,N,11849.58161,E,150027.00,A,A*74
$GNRMC,150028.00,A,3201.18313,N,11849.58155,E,0.392,,170817,,,A*61
$GNVTG,,T,,M,0.392,N,0.726,K,A*36
$GNGGA,150028.00,3201.18313,N,11849.58155,E,1,03,5.53,-3.1,M,2.5,M,,*55
$GNGSA,A,2,10,32,,,,,,,,,,,5.62,5.53,1.00*1E
$GNGSA,A,2,71,,,,,,,,,,,,5.62,5.53
